[{"name":"애플하우스","lat":37.501857,"lng":126.990053,"menu":"분식"},{"name":"또보겠지떡볶이","lat":37.55916,"lng":126.924464,"menu":"분식"},{"name":"엽기떡볶이","lat":37.566805,"lng":127.0158376,"menu":"분식"},{"name":"모꼬지에","lat":37.500602,"lng":127.1122583,"menu":"분식"},{"name":"타지팰리스","lat":37.544507,"lng":126.991511,"menu":"카레"},{"name":"죠티","lat":37.555044,"lng":126.937929,"menu":"카레"},{"name":"예티","lat":37.565563,"lng":126.923378,"menu":"카레"}]